[{"country": "Canada", "regions": [{"name": "Quebec", "centroid": {"lat": 53.38280815722059, "lon": -71.77247604123762}}, {"name": "Newfoundland and Labrador", "centroid": {"lat": 52.862525582570775, "lon": -60.46111446769293}}, {"name": "British Columbia", "centroid": {"lat": 54.76791885283666, "lon": -124.73662996308089}}, {"name": "Nunavut", "centroid": {"lat": 71.04893723390482, "lon": -88.89483029157653}}, {"name": "Northwest Territories", "centroid": {"lat": 66.34936244999341, "lon": -119.00123390050153}}, {"name": "New Brunswick", "centroid": {"lat": 46.62718734227422, "lon": -66.38040676601153}}, {"name": "Nova Scotia", "centroid": {"lat": 45.15018740306773, "lon": -63.326070015756414}}, {"name": "Saskatchewan", "centroid": {"lat": 54.41794558601707, "lon": -105.88938388600153}}, {"name": "Alberta", "centroid": {"lat": 55.16361492089171, "lon": -114.50705480180905}}, {"name": "Prince Edward Island", "centroid": {"lat": 46.400936772853285, "lon": -63.25773713341066}}, {"name": "Yukon Territory", "centroid": {"lat": 63.63374586543259, "lon": -135.50754669765246}}, {"name": "Manitoba", "centroid": {"lat": 54.925986598748736, "lon": -97.42889173663649}}, {"name": "Ontario", "centroid": {"lat": 50.451016395477566, "lon": -86.07296050192168}}]}, {"country": "US", "regions": [{"name": "Alabama", "centroid": {"lat": 32.7794, "lon": -86.8287}}, {"name": "Alaska", "centroid": {"lat": 64.0685, "lon": -152.2782}}, {"name": "Arizona", "centroid": {"lat": 34.2744, "lon": -111.6602}}, {"name": "Arkansas", "centroid": {"lat": 34.8938, "lon": -92.4426}}, {"name": "California", "centroid": {"lat": 37.1841, "lon": -119.4696}}, {"name": "Colorado", "centroid": {"lat": 38.9972, "lon": -105.5478}}, {"name": "Connecticut", "centroid": {"lat": 41.6219, "lon": -72.7273}}, {"name": "Delaware", "centroid": {"lat": 38.9896, "lon": -75.505}}, {"name": "Washington DC", "centroid": {"lat": 38.9101, "lon": -77.0147}}, {"name": "Florida", "centroid": {"lat": 28.6305, "lon": -82.4497}}, {"name": "Georgia", "centroid": {"lat": 32.6415, "lon": -83.4426}}, {"name": "Hawaii", "centroid": {"lat": 20.2927, "lon": -156.3737}}, {"name": "Idaho", "centroid": {"lat": 44.3509, "lon": -114.613}}, {"name": "Illinois", "centroid": {"lat": 40.0417, "lon": -89.1965}}, {"name": "Indiana", "centroid": {"lat": 39.8942, "lon": -86.2816}}, {"name": "Iowa", "centroid": {"lat": 42.0751, "lon": -93.496}}, {"name": "Kansas", "centroid": {"lat": 38.4937, "lon": -98.3804}}, {"name": "Kentucky", "centroid": {"lat": 37.5347, "lon": -85.3021}}, {"name": "Louisiana", "centroid": {"lat": 31.0689, "lon": -91.9968}}, {"name": "Maine", "centroid": {"lat": 45.3695, "lon": -69.2428}}, {"name": "Maryland", "centroid": {"lat": 39.055, "lon": -76.7909}}, {"name": "Massachusetts", "centroid": {"lat": 42.2596, "lon": -71.8083}}, {"name": "Michigan", "centroid": {"lat": 44.3467, "lon": -85.4102}}, {"name": "Minnesota", "centroid": {"lat": 46.2807, "lon": -94.3053}}, {"name": "Mississippi", "centroid": {"lat": 32.7364, "lon": -89.6678}}, {"name": "Missouri", "centroid": {"lat": 38.3566, "lon": -92.458}}, {"name": "Montana", "centroid": {"lat": 47.0527, "lon": -109.6333}}, {"name": "Nebraska", "centroid": {"lat": 41.5378, "lon": -99.7951}}, {"name": "Nevada", "centroid": {"lat": 39.3289, "lon": -116.6312}}, {"name": "New Hampshire", "centroid": {"lat": 43.6805, "lon": -71.5811}}, {"name": "New Jersey", "centroid": {"lat": 40.1907, "lon": -74.6728}}, {"name": "New Mexico", "centroid": {"lat": 34.4071, "lon": -106.1126}}, {"name": "New York", "centroid": {"lat": 42.9538, "lon": -75.5268}}, {"name": "North Carolina", "centroid": {"lat": 35.5557, "lon": -79.3877}}, {"name": "North Dakota", "centroid": {"lat": 47.4501, "lon": -100.4659}}, {"name": "Ohio", "centroid": {"lat": 40.2862, "lon": -82.7937}}, {"name": "Oklahoma", "centroid": {"lat": 35.5889, "lon": -97.4943}}, {"name": "Oregon", "centroid": {"lat": 43.9336, "lon": -120.5583}}, {"name": "Pennsylvania", "centroid": {"lat": 40.8781, "lon": -77.7996}}, {"name": "Rhode Island", "centroid": {"lat": 41.6762, "lon": -71.5562}}, {"name": "South Carolina", "centroid": {"lat": 33.9169, "lon": -80.8964}}, {"name": "South Dakota", "centroid": {"lat": 44.4443, "lon": -100.2263}}, {"name": "Tennessee", "centroid": {"lat": 35.858, "lon": -86.3505}}, {"name": "Texas", "centroid": {"lat": 31.4757, "lon": -99.3312}}, {"name": "Utah", "centroid": {"lat": 39.3055, "lon": -111.6703}}, {"name": "Vermont", "centroid": {"lat": 44.0687, "lon": -72.6658}}, {"name": "Virginia", "centroid": {"lat": 37.5215, "lon": -78.8537}}, {"name": "Washington", "centroid": {"lat": 47.3826, "lon": -120.4472}}, {"name": "West Virginia", "centroid": {"lat": 38.6409, "lon": -80.6227}}, {"name": "Wisconsin", "centroid": {"lat": 44.6243, "lon": -89.9941}}, {"name": "Wyoming", "centroid": {"lat": 42.9957, "lon": -107.5512}}]}]